{"nickname":"thread","startTimeUtc":"2021-05-20T09:19:28.1909845Z","tournament":{"players":[{"playerId":"5be9cbd71f3cf81af810ab67","playerName":"Shark0s","totalPoints":6710,"games":[{"gamePoints":6710}]}]},"games":[{"allGuesses":[[{"playerName":"Shark0s","playerId":"5be9cbd71f3cf81af810ab67","roundScoreInPoints":3098,"distanceInMeters":887217.1206247247,"time":10,"lat":19.573737451336697,"lng":-99.82928425618366}],[{"playerName":"Shark0s","playerId":"5be9cbd71f3cf81af810ab67","roundScoreInPoints":0,"distanceInMeters":12491551.272183256,"time":10,"lat":0,"lng":0}],[{"playerName":"Shark0s","playerId":"5be9cbd71f3cf81af810ab67","roundScoreInPoints":399,"distanceInMeters":4686128.165931013,"time":10,"lat":-40.60066756594476,"lng":-64.88598370765311}],[{"playerName":"Shark0s","playerId":"5be9cbd71f3cf81af810ab67","roundScoreInPoints":1359,"distanceInMeters":2413862.594588098,"time":9,"lat":-33.16644451994835,"lng":150.43846533664237}],[{"playerName":"Shark0s","playerId":"5be9cbd71f3cf81af810ab67","roundScoreInPoints":1854,"distanceInMeters":1838542.2015013965,"time":10,"lat":-31.45438991403983,"lng":119.05045621564852}]],"playerGames":[{"player":"Shark0s","playerId":"5be9cbd71f3cf81af810ab67","points":6710,"r1":{"points":3098,"time":10},"r2":{"points":0,"time":10},"r3":{"points":399,"time":10},"r4":{"points":1359,"time":9},"r5":{"points":1854,"time":10},"eliminatedInGame":"1","totalDistanceInMeters":22317301.354828488,"totalTime":49,"pinUrl":"pin/b713e0e3e92745f87336894f59565483.png"}],"answers":[{"lat":24.12236591708597,"lng":-106.89535171495697,"countryCode":"MX","countryName":"Mexico"},{"lat":-8.135211903495321,"lng":112.5787660770007,"countryCode":"ID","countryName":"Indonesia"},{"lat":-0.2972411655872583,"lng":-78.4450725462006,"countryCode":"EC","countryName":"Ecuador"},{"lat":-38.40658584229205,"lng":176.5091812894556,"countryCode":"NZ","countryName":"New Zealand"},{"lat":-32.42087050676727,"lng":138.5278725154582,"countryCode":"AU","countryName":"Australia"}],"mapName":"A Diverse World","gameNumber":1,"gameUrl":"https://www.geoguessr.com/results/vskVs1uRZ4Bvp1AN","gameId":"vskVs1uRZ4Bvp1AN","gameDescription":"10 sec. No move","playedWithEliminations":false,"forbidMoving":true,"forbidRotating":false,"forbidZooming":false,"timeLimit":10}]}